[
  {
    "location_id": "new-york",
    "city": "New York",
    "country": "United States",
    "lat": 40.7128,
    "lng": -74.006,
    "timezone": "America/New_York"
  },
  {
    "location_id": "london",
    "city": "London",
    "country": "United Kingdom",
    "lat": 51.5074,
    "lng": -0.1278,
    "timezone": "Europe/London"
  },
  {
    "location_id": "tokyo",
    "city": "Tokyo",
    "country": "Japan",
    "lat": 35.6762,
    "lng": 139.6503,
    "timezone": "Asia/Tokyo"
  },
  {
    "location_id": "paris",
    "city": "Paris",
    "country": "France",
    "lat": 48.8566,
    "lng": 2.3522,
    "timezone": "Europe/Paris"
  },
  {
    "location_id": "sydney",
    "city": "Sydney",
    "country": "Australia",
    "lat": -33.8688,
    "lng": 151.2093,
    "timezone": "Australia/Sydney"
  },
  {
    "location_id": "mumbai",
    "city": "Mumbai",
    "country": "India",
    "lat": 19.076,
    "lng": 72.8777,
    "timezone": "Asia/Kolkata"
  },
  {
    "location_id": "sao-paulo",
    "city": "S\u00e3o Paulo",
    "country": "Brazil",
    "lat": -23.5505,
    "lng": -46.6333,
    "timezone": "America/Sao_Paulo"
  },
  {
    "location_id": "cairo",
    "city": "Cairo",
    "country": "Egypt",
    "lat": 30.0444,
    "lng": 31.2357,
    "timezone": "Africa/Cairo"
  },
  {
    "location_id": "moscow",
    "city": "Moscow",
    "country": "Russia",
    "lat": 55.7558,
    "lng": 37.6173,
    "timezone": "Europe/Moscow"
  },
  {
    "location_id": "beijing",
    "city": "Beijing",
    "country": "China",
    "lat": 39.9042,
    "lng": 116.4074,
    "timezone": "Asia/Shanghai"
  },
  {
    "location_id": "dubai",
    "city": "Dubai",
    "country": "United Arab Emirates",
    "lat": 25.2048,
    "lng": 55.2708,
    "timezone": "Asia/Dubai"
  },
  {
    "location_id": "singapore",
    "city": "Singapore",
    "country": "Singapore",
    "lat": 1.3521,
    "lng": 103.8198,
    "timezone": "Asia/Singapore"
  },
  {
    "location_id": "toronto",
    "city": "Toronto",
    "country": "Canada",
    "lat": 43.6532,
    "lng": -79.3832,
    "timezone": "America/Toronto"
  },
  {
    "location_id": "berlin",
    "city": "Berlin",
    "country": "Germany",
    "lat": 52.52,
    "lng": 13.405,
    "timezone": "Europe/Berlin"
  },
  {
    "location_id": "lagos",
    "city": "Lagos",
    "country": "Nigeria",
    "lat": 6.5244,
    "lng": 3.3792,
    "timezone": "Africa/Lagos"
  },
  {
    "location_id": "mexico-city",
    "city": "Mexico City",
    "country": "Mexico",
    "lat": 19.4326,
    "lng": -99.1332,
    "timezone": "America/Mexico_City"
  },
  {
    "location_id": "seoul",
    "city": "Seoul",
    "country": "South Korea",
    "lat": 37.5665,
    "lng": 126.978,
    "timezone": "Asia/Seoul"
  },
  {
    "location_id": "buenos-aires",
    "city": "Buenos Aires",
    "country": "Argentina",
    "lat": -34.6037,
    "lng": -58.3816,
    "timezone": "America/Argentina/Buenos_Aires"
  },
  {
    "location_id": "nairobi",
    "city": "Nairobi",
    "country": "Kenya",
    "lat": -1.2921,
    "lng": 36.8219,
    "timezone": "Africa/Nairobi"
  },
  {
    "location_id": "istanbul",
    "city": "Istanbul",
    "country": "Turkey",
    "lat": 41.0082,
    "lng": 28.9784,
    "timezone": "Europe/Istanbul"
  }
]
